{
    "type": "FeatureCollection",
    "features": [

        {
            "type": "Feature",
            "geometry": {
                "type": "Point",
                "coordinates": [130.21213889122012, 32.70384933157942]
            },
            "properties": {
                "id": 125,
                "place": "小浜木場",
                "comment": "関門１６：１０（最終CP）",
                "note": "ドリンク",
                "isunmanned": false
            }
        },
        {
            "type": "Feature",
            "geometry": {
                "type": "Point",
                "coordinates": [130.21213889122012, 32.70384933157942]
            },
            "properties": {
                "id": 124,
                "place": "小浜木場",
                "comment": "269.7 (96.4) km 関門１６：１０（最終CP）",
                "note": "ドリンク",
                "isunmanned": false
            }
        },
        {
            "type": "Feature",
            "geometry": {
                "type": "Point",
                "coordinates": [130.2641844749451, 32.739250285262536]
            },
            "properties": {
                "id": 123,
                "place": "雲仙大叫喚地獄",
                "comment": "関門１５：００",
                "note": "エイドなし",
                "isunmanned": false
            }
        },
        {
            "type": "Feature",
            "geometry": {
                "type": "Point",
                "coordinates": [130.2641844749451, 32.739250285262536]
            },
            "properties": {
                "id": 122,
                "place": "雲仙大叫喚地獄",
                "comment": "260.0 (86.7) km",
                "note": "チェックポイントのみ",
                "isunmanned": false
            }
        },
        {
            "type": "Feature",
            "geometry": {
                "type": "Point",
                "coordinates": [130.18798828125003, 32.788429027225519]
            },
            "properties": {
                "id": 121,
                "place": "千々石海水浴場",
                "comment": "163.7km 関門１８：００",
                "note": "エイド食未定",
                "isunmanned": false
            }
        },
        {
            "type": "Feature",
            "geometry": {
                "type": "Point",
                "coordinates": [129.84947204589847, 32.752632552131693]
            },
            "properties": {
                "id": 116,
                "place": "稲佐山ＣＰ",
                "comment": "7ｋｍ",
                "note": "がんばれ",
                "isunmanned": false
            }
        },
        {
            "type": "Feature",
            "geometry": {
                "type": "Point",
                "coordinates": [129.74151849746707, 32.579130236535867]
            },
            "properties": {
                "id": 112,
                "place": "権現山山頂展望台",
                "comment": "70.1km",
                "note": "ミネストローネ",
                "isunmanned": false
            }
        },
        {
            "type": "Feature",
            "geometry": {
                "type": "Point",
                "coordinates": [130.04675388336184, 32.785939617338457]
            },
            "properties": {
                "id": 105,
                "place": "飯盛経塚　げんき君",
                "comment": "146km",
                "note": "特製ゼリー",
                "isunmanned": false
            }
        },
        {
            "type": "Feature",
            "geometry": {
                "type": "Point",
                "coordinates": [130.29851138591769, 32.719439397542459]
            },
            "properties": {
                "id": 102,
                "place": "俵石展望所",
                "comment": "252.8 （79）km",
                "note": "ぜんざい",
                "isunmanned": false
            }
        },
        {
            "type": "Feature",
            "geometry": {
                "type": "Point",
                "coordinates": [130.29837861657143, 32.7194867864668]
            },
            "properties": {
                "id": 101,
                "place": "場所",
                "comment": null,
                "note": null,
                "isunmanned": false
            }
        },
        {
            "type": "Feature",
            "geometry": {
                "type": "Point",
                "coordinates": [130.25391429662704, 32.630380517898629]
            },
            "properties": {
                "id": 99,
                "place": "原城址",
                "comment": "203.3　（30）km",
                "note": "中華粥",
                "isunmanned": false
            }
        },
        {
            "type": "Feature",
            "geometry": {
                "type": "Point",
                "coordinates": [130.36592468619349, 32.739772574265906]
            },
            "properties": {
                "id": 98,
                "place": "深江みずなし本陣",
                "comment": "224.2 （50）km　関門８：００",
                "note": "カステラ",
                "isunmanned": false
            }
        },
        {
            "type": "Feature",
            "geometry": {
                "type": "Point",
                "coordinates": [130.32956063747409, 32.730752224413138]
            },
            "properties": {
                "id": 96,
                "place": "深江運動場",
                "comment": "247.2 （74）km",
                "note": "冷豆腐",
                "isunmanned": false
            }
        },
        {
            "type": "Feature",
            "geometry": {
                "type": "Point",
                "coordinates": [130.26281386613846, 32.73851704499522]
            },
            "properties": {
                "id": 95,
                "place": "雲仙温泉　おやまの情報館バス停",
                "comment": "260.3 （87）km",
                "note": "地獄煮　（暑ければ、そうめん）",
                "isunmanned": false
            }
        },
        {
            "type": "Feature",
            "geometry": {
                "type": "Point",
                "coordinates": [130.32669067382815, 32.764758776930712]
            },
            "properties": {
                "id": 94,
                "place": "平成新山展望園地",
                "comment": "239 （66）km　関門１１：２０",
                "note": "杏仁豆腐",
                "isunmanned": false
            }
        },
        {
            "type": "Feature",
            "geometry": {
                "type": "Point",
                "coordinates": [130.36613523960116, 32.791211491684955]
            },
            "properties": {
                "id": 93,
                "place": "島原城址",
                "comment": "230.8　（57）km　関門１０：００",
                "note": "豚汁・おにぎり",
                "isunmanned": false
            }
        },
        {
            "type": "Feature",
            "geometry": {
                "type": "Point",
                "coordinates": [130.18525376915932, 32.610151208946306]
            },
            "properties": {
                "id": 91,
                "place": "口之津",
                "comment": "194.4　（21）km",
                "note": "ゼリー",
                "isunmanned": false
            }
        },
        {
            "type": "Feature",
            "geometry": {
                "type": "Point",
                "coordinates": [130.20652770996097, 32.726064576130646]
            },
            "properties": {
                "id": 90,
                "place": "場所",
                "comment": null,
                "note": null,
                "isunmanned": false
            }
        },
        {
            "type": "Feature",
            "geometry": {
                "type": "Point",
                "coordinates": [130.01118779182437, 32.761772486441927]
            },
            "properties": {
                "id": 88,
                "place": "飯盛峠とんの山",
                "comment": "138.8km",
                "note": "おはぎ",
                "isunmanned": false
            }
        },
        {
            "type": "Feature",
            "geometry": {
                "type": "Point",
                "coordinates": [129.86826896667483, 32.741731976784372]
            },
            "properties": {
                "id": 87,
                "place": "スタート",
                "comment": "0km",
                "note": "水辺の森公園",
                "isunmanned": false
            }
        },
        {
            "type": "Feature",
            "geometry": {
                "type": "Point",
                "coordinates": [129.91438150405887, 32.701840569670857]
            },
            "properties": {
                "id": 86,
                "place": "茂木ぶらぶら",
                "comment": "115.4km 関門１０：００ ドロップバッグ預かり",
                "note": "角煮めし、ごはん",
                "isunmanned": false
            }
        },
        {
            "type": "Feature",
            "geometry": {
                "type": "Point",
                "coordinates": [129.83629703521731, 32.635146600017208]
            },
            "properties": {
                "id": 85,
                "place": "川原老人の家",
                "comment": "98.5km",
                "note": "水餃子・おにぎり",
                "isunmanned": false
            }
        },
        {
            "type": "Feature",
            "geometry": {
                "type": "Point",
                "coordinates": [129.78557109832767, 32.563524736729136]
            },
            "properties": {
                "id": 84,
                "place": "椛島公民館",
                "comment": "83.5km",
                "note": "カレーライス",
                "isunmanned": false
            }
        },
        {
            "type": "Feature",
            "geometry": {
                "type": "Point",
                "coordinates": [129.77568512025755, 32.551151391848975]
            },
            "properties": {
                "id": 83,
                "place": "椛島灯台",
                "comment": "80.7km",
                "note": "ドリンク",
                "isunmanned": false
            }
        },
        {
            "type": "Feature",
            "geometry": {
                "type": "Point",
                "coordinates": [129.85616683959964, 32.718121524035546]
            },
            "properties": {
                "id": 71,
                "place": "女神大橋エイド",
                "comment": "うどん",
                "note": "45ｋｍ",
                "isunmanned": false
            }
        },
        {
            "type": "Feature",
            "geometry": {
                "type": "Point",
                "coordinates": [129.79794681072238, 32.801479249710709]
            },
            "properties": {
                "id": 2,
                "place": "あぐり",
                "comment": "aiai待ってます",
                "note": "メモ",
                "isunmanned": false
            }
        },
        {
            "type": "Feature",
            "geometry": {
                "type": "Point",
                "coordinates": [129.79775905609134, 32.801452195252914]
            },
            "properties": {
                "id": 4,
                "place": "あぐりの丘エイドＣＰ",
                "comment": "食事あります\n25.3ｋｍ",
                "note": "メモ１",
                "isunmanned": false
            }
        },
        {
            "type": "Feature",
            "geometry": {
                "type": "Point",
                "coordinates": [129.94253396987918, 32.758849253123351]
            },
            "properties": {
                "id": 6,
                "place": "日見公園",
                "comment": "130km",
                "note": "豚汁・いなり",
                "isunmanned": false
            }
        }
    ]
}